21:54:36.097240$GPGSA,A,3,26,18,31,16,02,25,,,,,,,2.2,1.3,1.8*34
21:54:36.213675$GPRMC,205439.000,A,3703.1924,N,00433.7847,W,0.00,0.00,101222,,,A*76
21:54:36.374197$GPGGA,205440.000,3703.1924,N,00433.7847,W,1,06,1.3,426.6,M,49.0,M,,0000*47
21:54:37.097214$GPGSA,A,3,26,18,31,16,02,25,,,,,,,2.2,1.3,1.8*34
21:54:37.213865$GPGSV,3,1,09,26,70,331,47,18,66,089,46,31,46,197,47,16,37,311,45*74
21:54:37.374191$GPGSV,3,2,09,02,31,045,45,25,08,117,36,12,47,116,,28,43,133,*76
21:54:37.525735$GPGSV,3,3,09,24,01,232,*44
21:54:37.592058$GPRMC,205440.000,A,3703.1924,N,00433.7847,W,0.00,0.00,101222,,,A*78
21:54:37.752537$GPGGA,205441.000,3703.1924,N,00433.7847,W,1,06,1.3,426.6,M,49.0,M,,0000*46
21:54:38.096039$GPGSA,A,3,26,18,31,16,02,25,,,,,,,2.2,1.3,1.8*34
21:54:38.212853$GPRMC,205441.000,A,3703.1924,N,00433.7847,W,0.00,0.00,101222,,,A*79
21:54:38.373444$GPGGA,205442.000,3703.1924,N,00433.7847,W,1,06,1.3,426.6,M,49.0,M,,0000*45
21:54:39.095897$GPGSA,A,3,26,18,31,16,02,25,,,,,,,2.2,1.3,1.8*34
21:54:39.212693$GPRMC,205442.000,A,3703.1924,N,00433.7847,W,0.00,0.00,101222,,,A*7A
21:54:39.373343$GPGGA,205443.000,3703.1924,N,00433.7847,W,1,06,1.3,426.6,M,49.0,M,,0000*44
21:54:40.096855$GPGSA,A,3,26,18,31,16,02,25,,,,,,,2.2,1.3,1.8*34
21:54:40.213516$GPRMC,205443.000,A,3703.1924,N,00433.7847,W,0.00,0.00,101222,,,A*7B
21:54:40.374120$GPGGA,205444.000,3703.1924,N,00433.7847,W,1,06,1.3,426.7,M,49.0,M,,0000*42
21:54:41.096717$GPGSA,A,3,26,18,31,16,02,25,,,,,,,2.2,1.3,1.8*34
21:54:41.213391$GPRMC,205444.000,A,3703.1924,N,00433.7847,W,0.00,0.00,101222,,,A*7C
21:54:41.373841$GPGGA,205445.000,3703.1924,N,00433.7847,W,1,06,1.3,426.7,M,49.0,M,,0000*43
21:54:42.096113$GPGSA,A,3,26,18,31,16,02,25,,,,,,,2.2,1.3,1.8*34
21:54:42.212799$GPGSV,3,1,09,26,70,331,46,18,66,089,46,31,46,197,47,16,37,311,45*75
21:54:42.373378$GPGSV,3,2,09,02,31,045,45,25,08,117,35,12,47,116,,28,43,133,*75
21:54:42.524625$GPGSV,3,3,09,24,01,232,*44
21:54:42.590979$GPRMC,205445.000,A,3703.1924,N,00433.7847,W,0.00,0.00,101222,,,A*7D
21:54:42.751438$GPGGA,205446.000,3703.1924,N,00433.7847,W,1,06,1.3,426.7,M,49.0,M,,0000*40
21:54:43.096667$GPGSA,A,3,26,18,31,16,02,25,,,,,,,2.2,1.3,1.8*34
21:54:43.213262$GPRMC,205446.000,A,3703.1924,N,00433.7847,W,0.00,0.00,101222,,,A*7E
21:54:43.373957$GPGGA,205447.000,3703.1924,N,00433.7847,W,1,06,1.3,426.7,M,49.0,M,,0000*41
21:54:44.096769$GPGSA,A,3,26,18,31,16,02,25,,,,,,,2.2,1.3,1.8*34
21:54:44.213552$GPRMC,205447.000,A,3703.1924,N,00433.7847,W,0.00,0.00,101222,,,A*7F
21:54:44.374096$GPGGA,205448.000,3703.1924,N,00433.7847,W,1,06,1.3,426.7,M,49.0,M,,0000*4E
21:54:45.096743$GPGSA,A,3,26,18,31,16,02,25,,,,,,,2.2,1.3,1.8*34
21:54:45.213431$GPRMC,205448.000,A,3703.1924,N,00433.7847,W,0.00,0.00,101222,,,A*70
21:54:45.374064$GPGGA,205449.000,3703.1924,N,00433.7847,W,1,06,1.3,426.7,M,49.0,M,,0000*4F
21:54:46.096050$GPGSA,A,3,26,18,31,16,02,25,,,,,,,2.2,1.3,1.8*34
21:54:46.212862$GPRMC,205449.000,A,3703.1924,N,00433.7847,W,0.00,0.00,101222,,,A*71
21:54:46.373370$GPGGA,205450.000,3703.1924,N,00433.7847,W,1,06,1.3,426.7,M,49.0,M,,0000*47
21:54:47.095951$GPGSA,A,3,26,18,31,16,02,25,,,,,,,2.2,1.3,1.8*34
21:54:47.212731$GPGSV,3,1,09,26,70,331,46,18,66,089,46,31,46,197,47,16,37,311,45*75
21:54:47.373377$GPGSV,3,2,09,02,31,045,46,25,08,117,36,12,47,116,,28,43,133,*75
21:54:47.524526$GPGSV,3,3,09,24,01,232,*44
21:54:47.590906$GPRMC,205450.000,A,3703.1924,N,00433.7847,W,0.00,0.00,101222,,,A*79
21:54:47.751339$GPGGA,205451.000,3703.1923,N,00433.7848,W,1,06,1.3,426.7,M,49.0,M,,0000*4E
21:54:48.096765$GPGSA,A,3,26,18,31,16,02,25,,,,,,,2.2,1.3,1.8*34
21:54:48.213487$GPRMC,205451.000,A,3703.1923,N,00433.7848,W,0.00,0.00,101222,,,A*70
21:54:48.374086$GPGGA,205452.000,3703.1922,N,00433.7852,W,1,06,1.3,427.8,M,49.0,M,,0000*49
21:54:49.096331$GPGSA,A,3,26,18,31,16,02,25,,,,,,,2.2,1.3,1.8*34
21:54:49.213006$GPRMC,205452.000,A,3703.1922,N,00433.7852,W,0.06,0.00,101222,,,A*7F
21:54:49.373624$GPGGA,205453.000,3703.1922,N,00433.7852,W,1,06,1.3,427.8,M,49.0,M,,0000*48
21:54:50.096306$GPGSA,A,3,26,18,31,16,02,25,,,,,,,2.2,1.3,1.8*34
21:54:50.212981$GPRMC,205453.000,A,3703.1922,N,00433.7852,W,0.00,0.00,101222,,,A*78
21:54:50.373536$GPGGA,205454.000,3703.1922,N,00433.7852,W,1,06,1.3,427.8,M,49.0,M,,0000*4F
21:54:51.095950$GPGSA,A,3,26,18,31,16,02,25,,,,,,,2.2,1.3,1.8*34
21:54:51.212720$GPRMC,205454.000,A,3703.1922,N,00433.7852,W,0.00,0.00,101222,,,A*7F
21:54:51.373310$GPGGA,205455.000,3703.1922,N,00433.7852,W,1,06,1.3,427.8,M,49.0,M,,0000*4E
21:54:52.096748$GPGSA,A,3,26,18,31,16,02,25,,,,,,,2.2,1.3,1.8*34
21:54:52.213447$GPGSV,3,1,09,26,70,331,47,18,66,089,46,31,46,197,47,16,37,311,44*75
21:54:52.374064$GPGSV,3,2,09,02,31,045,46,25,08,117,37,12,47,116,,28,43,133,*74
21:54:52.525318$GPGSV,3,3,09,24,01,232,*44
21:54:52.591824$GPRMC,205455.000,A,3703.1922,N,00433.7852,W,0.00,0.00,101222,,,A*7E
21:54:52.752142$GPGGA,205456.000,3703.1922,N,00433.7852,W,1,06,1.3,427.8,M,49.0,M,,0000*4D
21:54:53.096714$GPGSA,A,3,26,18,31,16,02,25,,,,,,,2.2,1.3,1.8*34
21:54:53.213424$GPRMC,205456.000,A,3703.1922,N,00433.7852,W,0.00,0.00,101222,,,A*7D
21:54:53.374062$GPGGA,205457.000,3703.1922,N,00433.7852,W,1,06,1.3,427.8,M,49.0,M,,0000*4C
21:54:54.096039$GPGSA,A,3,26,18,31,16,02,25,,,,,,,2.2,1.3,1.8*34
21:54:54.212747$GPRMC,205457.000,A,3703.1922,N,00433.7852,W,0.00,0.00,101222,,,A*7C
21:54:54.373306$GPGGA,205458.000,3703.1922,N,00433.7853,W,1,06,1.3,427.8,M,49.0,M,,0000*42
21:54:55.096818$GPGSA,A,3,26,18,31,16,02,25,,,,,,,2.2,1.3,1.8*34
21:54:55.213496$GPRMC,205458.000,A,3703.1922,N,00433.7853,W,0.00,0.00,101222,,,A*72
21:54:55.374216$GPGGA,205459.000,3703.1922,N,00433.7853,W,1,06,1.3,427.8,M,49.0,M,,0000*43
21:54:56.096764$GPGSA,A,3,26,18,31,16,02,25,,,,,,,2.2,1.3,1.8*34
21:54:56.213401$GPRMC,205459.000,A,3703.1922,N,00433.7853,W,0.00,0.00,101222,,,A*73
21:54:56.374100$GPGGA,205500.000,3703.1922,N,00433.7853,W,1,06,1.3,427.8,M,49.0,M,,0000*4E
21:54:57.096937$GPGSA,A,3,26,18,31,16,02,25,,,,,,,2.2,1.3,1.8*34
21:54:57.213552$GPGSV,3,1,09,26,70,331,47,18,66,089,46,31,46,197,47,16,37,311,44*75
21:54:57.374190$GPGSV,3,2,09,02,31,045,46,25,08,117,38,12,47,116,,28,43,133,*7B
21:54:57.525250$GPGSV,3,3,09,24,01,232,*44
21:54:57.591893$GPRMC,205500.000,A,3703.1922,N,00433.7853,W,0.00,0.00,101222,,,A*7E
21:54:57.752076$GPGGA,205501.000,3703.1922,N,00433.7853,W,1,06,1.3,427.8,M,49.0,M,,0000*4F
21:54:58.096170$GPGSA,A,3,26,18,31,16,02,25,,,,,,,2.2,1.3,1.8*34
21:54:58.212776$GPRMC,205501.000,A,3703.1922,N,00433.7853,W,0.00,0.00,101222,,,A*7F
21:54:58.373086$GPGGA,205502.000,3703.1922,N,00433.7853,W,1,06,1.3,427.8,M,49.0,M,,0000*4C
21:54:59.096322$GPGSA,A,3,26,18,31,16,02,25,,,,,,,2.2,1.3,1.8*34
21:54:59.213128$GPRMC,205502.000,A,3703.1922,N,00433.7853,W,0.00,0.00,101222,,,A*7C
21:54:59.373656$GPGGA,205503.000,3703.1922,N,00433.7853,W,1,06,1.3,427.8,M,49.0,M,,0000*4D
21:55:00.096899$GPGSA,A,3,26,18,31,16,02,25,,,,,,,2.2,1.3,1.8*34
21:55:00.213512$GPRMC,205503.000,A,3703.1922,N,00433.7853,W,0.00,0.00,101222,,,A*7D
21:55:00.374143$GPGGA,205504.000,3703.1922,N,00433.7857,W,1,06,1.3,428.1,M,49.0,M,,0000*48
21:55:01.119403$GPGSA,A,3,26,18,31,16,02,25,,,,,,,2.2,1.3,1.8*34
21:55:01.236591$GPRMC,205504.000,A,3703.1922,N,00433.7857,W,0.06,0.00,101222,,,A*78
21:55:01.396944$GPGGA,205505.000,3703.1922,N,00433.7857,W,1,06,1.3,428.1,M,49.0,M,,0000*49
21:55:02.096476$GPGSA,A,3,26,18,31,16,02,25,,,,,,,2.2,1.3,1.8*34
21:55:02.213234$GPGSV,3,1,09,26,71,331,47,18,66,088,46,31,46,196,47,16,37,311,44*74
21:55:02.373669$GPGSV,3,2,09,02,31,045,46,25,07,117,38,12,47,115,,28,43,133,*77
21:55:02.525148$GPGSV,3,3,09,24,01,232,*44
21:55:02.591583$GPRMC,205505.000,A,3703.1922,N,00433.7857,W,0.00,0.00,101222,,,A*7F
21:55:02.751777$GPGGA,205506.000,3703.1922,N,00433.7857,W,1,06,1.3,428.1,M,49.0,M,,0000*4A
21:55:03.096375$GPGSA,A,3,26,18,31,16,02,25,,,,,,,2.2,1.3,1.8*34
21:55:03.212983$GPRMC,205506.000,A,3703.1922,N,00433.7857,W,0.00,0.00,101222,,,A*7C
21:55:03.373488$GPGGA,205507.000,3703.1922,N,00433.7857,W,1,06,1.3,428.1,M,49.0,M,,0000*4B
21:55:04.096872$GPGSA,A,3,26,18,31,16,02,25,,,,,,,2.2,1.3,1.8*34
21:55:04.213772$GPRMC,205507.000,A,3703.1922,N,00433.7857,W,0.00,0.00,101222,,,A*7D
21:55:04.374205$GPGGA,205508.000,3703.1922,N,00433.7857,W,1,06,1.3,428.1,M,49.0,M,,0000*44
21:55:05.097203$GPGSA,A,3,26,18,31,16,02,25,,,,,,,2.2,1.3,1.8*34
21:55:05.213801$GPRMC,205508.000,A,3703.1922,N,00433.7857,W,0.00,0.00,101222,,,A*72
21:55:05.374181$GPGGA,205509.000,3703.1922,N,00433.7857,W,1,06,1.3,428.1,M,49.0,M,,0000*45
21:55:06.096186$GPGSA,A,3,26,18,31,16,02,25,,,,,,,2.2,1.3,1.8*34
21:55:06.213023$GPRMC,205509.000,A,3703.1922,N,00433.7857,W,0.00,0.00,101222,,,A*73
21:55:06.373659$GPGGA,205510.000,3703.1922,N,00433.7857,W,1,06,1.3,428.1,M,49.0,M,,0000*4D
21:55:07.096845$GPGSA,A,3,26,18,31,16,02,25,,,,,,,2.2,1.3,1.8*34
21:55:07.213420$GPGSV,3,1,09,26,71,331,47,18,66,088,46,31,46,196,47,16,37,311,44*74
21:55:07.374083$GPGSV,3,2,09,02,31,045,46,25,07,117,38,12,47,115,,28,43,133,*77
21:55:07.525335$GPGSV,3,3,09,24,01,232,*44
21:55:07.591678$GPRMC,205510.000,A,3703.1922,N,00433.7857,W,0.00,0.00,101222,,,A*7B
21:55:07.751933$GPGGA,205511.000,3703.1922,N,00433.7857,W,1,06,1.3,428.1,M,49.0,M,,0000*4C
21:55:08.096941$GPGSA,A,3,26,18,31,16,02,25,,,,,,,2.2,1.3,1.8*34
21:55:08.213701$GPRMC,205511.000,A,3703.1922,N,00433.7857,W,0.00,0.00,101222,,,A*7A
21:55:08.374106$GPGGA,205512.000,3703.1922,N,00433.7857,W,1,06,1.3,428.1,M,49.0,M,,0000*4F
21:55:09.097109$GPGSA,A,3,26,18,31,16,02,25,,,,,,,2.2,1.3,1.8*34
21:55:09.213849$GPRMC,205512.000,A,3703.1922,N,00433.7857,W,0.00,0.00,101222,,,A*79
21:55:09.374358$GPGGA,205513.000,3703.1922,N,00433.7857,W,1,06,1.3,428.1,M,49.0,M,,0000*4E
21:55:10.096212$GPGSA,A,3,26,18,31,16,02,25,,,,,,,2.2,1.3,1.8*34
21:55:10.213027$GPRMC,205513.000,A,3703.1922,N,00433.7857,W,0.00,0.00,101222,,,A*78
21:55:10.373491$GPGGA,205514.000,3703.1922,N,00433.7857,W,1,06,1.3,428.1,M,49.0,M,,0000*49
21:55:11.096208$GPGSA,A,3,26,18,31,16,02,25,,,,,,,2.2,1.3,1.8*34
21:55:11.213030$GPRMC,205514.000,A,3703.1922,N,00433.7857,W,0.00,0.00,101222,,,A*7F
21:55:11.373432$GPGGA,205515.000,3703.1922,N,00433.7857,W,1,06,1.3,428.1,M,49.0,M,,0000*48
21:55:12.096690$GPGSA,A,3,26,18,31,16,02,25,,,,,,,2.2,1.3,1.8*34
21:55:12.213554$GPGSV,3,1,09,26,71,331,47,18,66,088,46,31,46,196,47,16,37,311,44*74
21:55:12.374065$GPGSV,3,2,09,02,31,045,46,25,07,117,39,12,47,115,,28,43,133,*76
21:55:12.525141$GPGSV,3,3,09,24,01,232,*44
21:55:12.591628$GPRMC,205515.000,A,3703.1922,N,00433.7857,W,0.00,0.00,101222,,,A*7E
21:55:12.752151$GPGGA,205516.000,3703.1922,N,00433.7857,W,1,06,1.3,428.1,M,49.0,M,,0000*4B
21:55:13.097455$GPGSA,A,3,26,18,31,16,02,25,,,,,,,2.2,1.3,1.8*34
21:55:13.214309$GPRMC,205516.000,A,3703.1922,N,00433.7857,W,0.00,0.00,101222,,,A*7D
21:55:13.374801$GPGGA,205517.000,3703.1922,N,00433.7857,W,1,06,1.3,428.1,M,49.0,M,,0000*4A
21:55:14.096165$GPGSA,A,3,26,18,31,16,02,25,,,,,,,2.2,1.3,1.8*34
21:55:14.213025$GPRMC,205517.000,A,3703.1922,N,00433.7857,W,0.00,0.00,101222,,,A*7C
21:55:14.373414$GPGGA,205518.000,3703.1922,N,00433.7857,W,1,06,1.3,428.1,M,49.0,M,,0000*45
21:55:15.096417$GPGSA,A,3,26,18,31,16,02,25,,,,,,,2.2,1.3,1.8*34
21:55:15.213116$GPRMC,205518.000,A,3703.1922,N,00433.7857,W,0.00,0.00,101222,,,A*73
21:55:15.373630$GPGGA,205519.000,3703.1922,N,00433.7857,W,1,06,1.3,428.1,M,49.0,M,,0000*44
21:55:16.097108$GPGSA,A,3,26,18,31,16,02,25,,,,,,,2.2,1.3,1.8*34
21:55:16.213993$GPRMC,205519.000,A,3703.1922,N,00433.7857,W,0.00,0.00,101222,,,A*72
21:55:16.374280$GPGGA,205520.000,3703.1922,N,00433.7857,W,1,06,1.3,428.1,M,49.0,M,,0000*4E
21:55:17.097032$GPGSA,A,3,26,18,31,16,02,25,,,,,,,2.2,1.3,1.8*34
21:55:17.213856$GPGSV,3,1,09,26,71,331,47,18,66,088,46,31,46,196,47,16,37,311,44*74
21:55:17.374382$GPGSV,3,2,09,02,31,045,46,25,07,117,39,12,47,115,,28,43,133,*76
21:55:17.525531$GPGSV,3,3,09,24,01,232,*44
21:55:17.592087$GPRMC,205520.000,A,3703.1922,N,00433.7857,W,0.00,0.00,101222,,,A*78
21:55:17.752340$GPGGA,205521.000,3703.1922,N,00433.7857,W,1,06,1.3,428.1,M,49.0,M,,0000*4F
21:55:18.096218$GPGSA,A,3,26,18,31,16,02,25,,,,,,,2.2,1.3,1.8*34
21:55:18.213007$GPRMC,205521.000,A,3703.1922,N,00433.7857,W,0.00,0.00,101222,,,A*79
21:55:18.373378$GPGGA,205522.000,3703.1922,N,00433.7857,W,1,06,1.3,428.1,M,49.0,M,,0000*4C
21:55:19.096939$GPGSA,A,3,26,18,31,16,02,25,,,,,,,2.2,1.3,1.8*34
21:55:19.213805$GPRMC,205522.000,A,3703.1922,N,00433.7857,W,0.00,0.00,101222,,,A*7A
21:55:19.374251$GPGGA,205523.000,3703.1922,N,00433.7857,W,1,06,1.3,428.1,M,49.0,M,,0000*4D
21:55:20.097519$GPGSA,A,3,26,18,31,16,02,25,,,,,,,2.2,1.3,1.8*34
21:55:20.214474$GPRMC,205523.000,A,3703.1922,N,00433.7857,W,0.00,0.00,101222,,,A*7B
21:55:20.374680$GPGGA,205524.000,3703.1922,N,00433.7857,W,1,06,1.3,428.1,M,49.0,M,,0000*4A
21:55:21.097640$GPGSA,A,3,26,18,31,16,02,25,,,,,,,2.2,1.3,1.8*34
21:55:21.214456$GPRMC,205524.000,A,3703.1922,N,00433.7857,W,0.00,0.00,101222,,,A*7C
21:55:21.374793$GPGGA,205525.000,3703.1922,N,00433.7857,W,1,06,1.3,428.1,M,49.0,M,,0000*4B
21:55:22.096352$GPGSA,A,3,26,18,31,16,02,25,,,,,,,2.2,1.3,1.8*34
21:55:22.213102$GPGSV,3,1,09,26,71,331,47,18,66,088,46,31,46,196,47,16,37,311,44*74
21:55:22.373616$GPGSV,3,2,09,02,31,045,46,25,07,117,38,12,47,115,,28,43,133,*77
21:55:22.524862$GPGSV,3,3,09,24,01,232,*44
21:55:22.591264$GPRMC,205525.000,A,3703.1922,N,00433.7857,W,0.00,0.00,101222,,,A*7D
21:55:22.751569$GPGGA,205526.000,3703.1922,N,00433.7861,W,1,06,1.3,428.2,M,49.0,M,,0000*4E
21:55:23.096364$GPGSA,A,3,26,18,31,16,02,25,,,,,,,2.2,1.3,1.8*34
21:55:23.213103$GPRMC,205526.000,A,3703.1922,N,00433.7861,W,0.41,0.00,101222,,,A*7E
21:55:23.373580$GPGGA,205527.000,3703.1922,N,00433.7867,W,1,06,1.3,428.3,M,49.0,M,,0000*48
21:55:24.097259$GPGSA,A,3,26,18,31,16,02,25,,,,,,,2.2,1.3,1.8*34
21:55:24.214179$GPRMC,205527.000,A,3703.1922,N,00433.7867,W,1.45,267.87,101222,,,A*70
21:55:24.379069$GPGGA,205528.000,3703.1921,N,00433.7877,W,1,06,1.3,428.4,M,49.0,M,,0000*42
21:55:25.098042$GPGSA,A,3,26,18,31,16,02,25,,,,,,,2.2,1.3,1.8*34
21:55:25.214720$GPRMC,205528.000,A,3703.1921,N,00433.7877,W,2.97,262.64,101222,,,A*79
21:55:25.379865$GPGGA,205529.000,3703.1920,N,00433.7892,W,1,06,1.3,428.5,M,49.0,M,,0000*48
21:55:26.096544$GPGSA,A,3,26,18,31,16,02,25,,,,,,,2.2,1.3,1.8*34
21:55:26.213424$GPRMC,205529.000,A,3703.1920,N,00433.7892,W,4.83,260.38,101222,,,A*7A
21:55:26.378236$GPGGA,205530.000,3703.1918,N,00433.7913,W,1,06,1.3,428.5,M,49.0,M,,0000*43
21:55:27.096718$GPGSA,A,3,26,18,31,16,02,25,,,,,,,2.2,1.3,1.8*34
21:55:27.213537$GPGSV,3,1,09,26,71,331,47,18,66,088,46,31,46,196,47,16,37,311,45*75
21:55:27.373976$GPGSV,3,2,09,02,31,045,45,25,07,117,38,12,47,115,,28,43,133,*74
21:55:27.525214$GPGSV,3,3,09,24,01,232,*44
21:55:27.591622$GPRMC,205530.000,A,3703.1918,N,00433.7913,W,6.38,269.17,101222,,,A*77
21:55:27.756633$GPGGA,205531.000,3703.1921,N,00433.7940,W,1,06,1.3,428.5,M,49.0,M,,0000*4E
21:55:28.097269$GPGSA,A,3,26,18,31,16,02,25,,,,,,,2.2,1.3,1.8*34
21:55:28.214144$GPRMC,205531.000,A,3703.1921,N,00433.7940,W,8.07,282.16,101222,,,A*7C
21:55:28.378958$GPGGA,205532.000,3703.1929,N,00433.7972,W,1,06,1.3,428.5,M,49.0,M,,0000*44
21:55:29.097403$GPGSA,A,3,26,18,31,16,02,25,,,,,,,2.2,1.3,1.8*34
21:55:29.214303$GPRMC,205532.000,A,3703.1929,N,00433.7972,W,9.73,288.55,101222,,,A*79
21:55:29.379205$GPGGA,205533.000,3703.1939,N,00433.8007,W,1,06,1.3,428.4,M,49.0,M,,0000*41
21:55:30.096568$GPGSA,A,3,26,18,31,16,02,25,,,,,,,2.2,1.3,1.8*34
21:55:30.213348$GPRMC,205533.000,A,3703.1939,N,00433.8007,W,10.84,290.32,101222,,,A*45
21:55:30.380674$GPGGA,205534.000,3703.1949,N,00433.8044,W,1,06,1.3,428.3,M,49.0,M,,0000*41
21:55:31.096250$GPGSA,A,3,26,18,31,16,02,25,,,,,,,2.2,1.3,1.8*34
21:55:31.213060$GPRMC,205534.000,A,3703.1949,N,00433.8044,W,11.02,290.15,101222,,,A*48
21:55:31.380401$GPGGA,205535.000,3703.1960,N,00433.8083,W,1,06,1.3,428.2,M,49.0,M,,0000*41
21:55:32.096257$GPGSA,A,3,26,18,31,16,02,25,,,,,,,2.2,1.3,1.8*34
21:55:32.212850$GPGSV,3,1,09,26,71,331,47,18,66,088,46,31,46,196,45,16,37,311,46*74
21:55:32.373465$GPGSV,3,2,09,02,31,045,44,25,07,117,33,12,47,115,,28,43,133,*7E
21:55:32.524699$GPGSV,3,3,09,24,01,232,*44
21:55:32.591072$GPRMC,205535.000,A,3703.1960,N,00433.8083,W,11.88,289.26,101222,,,A*43
21:55:32.758498$GPGGA,205536.000,3703.1971,N,00433.8125,W,1,06,1.3,428.0,M,49.0,M,,0000*4D
21:55:33.096332$GPGSA,A,3,26,18,31,16,02,25,,,,,,,2.2,1.3,1.8*34
21:55:33.213153$GPRMC,205536.000,A,3703.1971,N,00433.8125,W,13.01,289.35,101222,,,A*4C
21:55:33.380629$GPGGA,205537.000,3703.1983,N,00433.8171,W,1,06,1.3,427.9,M,49.0,M,,0000*46
21:55:34.096450$GPGSA,A,3,26,18,31,16,02,25,,,,,,,2.2,1.3,1.8*34
21:55:34.213384$GPRMC,205537.000,A,3703.1983,N,00433.8171,W,14.19,288.19,101222,,,A*40
21:55:34.380650$GPGGA,205538.000,3703.1996,N,00433.8221,W,1,06,1.3,427.9,M,49.0,M,,0000*4B
21:55:35.096420$GPGSA,A,3,26,18,31,16,02,25,,,,,,,2.2,1.3,1.8*34
21:55:35.213279$GPRMC,205538.000,A,3703.1996,N,00433.8221,W,15.01,288.61,101222,,,A*4A
21:55:35.380547$GPGGA,205539.000,3703.2010,N,00433.8273,W,1,06,1.3,427.8,M,49.0,M,,0000*48
21:55:36.097229$GPGSA,A,3,26,18,31,16,02,25,,,,,,,2.2,1.3,1.8*34
21:55:36.214065$GPRMC,205539.000,A,3703.2010,N,00433.8273,W,15.70,288.95,101222,,,A*45
21:55:36.381358$GPGGA,205540.000,3703.2024,N,00433.8327,W,1,06,1.3,427.7,M,49.0,M,,0000*4E
21:55:37.096703$GPGSA,A,3,26,18,31,16,02,25,,,,,,,2.2,1.3,1.8*34
21:55:37.213623$GPGSV,3,1,09,26,71,331,47,18,66,088,46,31,46,196,45,16,37,311,46*74
21:55:37.374128$GPGSV,3,2,09,02,31,045,44,25,07,117,26,12,47,115,,28,43,133,*7A
21:55:37.525242$GPGSV,3,3,09,24,01,232,*44
21:55:37.591673$GPRMC,205540.000,A,3703.2024,N,00433.8327,W,16.35,288.55,101222,,,A*42
21:55:37.758858$GPGGA,205541.000,3703.2039,N,00433.8383,W,1,06,1.3,427.5,M,49.0,M,,0000*4F
21:55:38.095650$GPGSA,A,3,26,18,31,16,02,25,,,,,,,2.2,1.3,1.8*34
21:55:38.212420$GPRMC,205541.000,A,3703.2039,N,00433.8383,W,17.15,288.46,101222,,,A*40
21:55:38.379757$GPGGA,205542.000,3703.2055,N,00433.8442,W,1,06,1.3,427.4,M,49.0,M,,0000*4D
21:55:39.095561$GPGSA,A,3,26,18,31,16,02,25,,,,,,,2.2,1.3,1.8*34
21:55:39.212269$GPRMC,205542.000,A,3703.2055,N,00433.8442,W,18.00,288.47,101222,,,A*49
21:55:39.379691$GPGGA,205543.000,3703.2071,N,00433.8503,W,1,06,1.3,427.3,M,49.0,M,,0000*49
21:55:40.096400$GPGSA,A,3,26,18,31,16,02,25,,,,,,,2.2,1.3,1.8*34
21:55:40.212939$GPRMC,205543.000,A,3703.2071,N,00433.8503,W,18.29,288.40,101222,,,A*46
21:55:40.380513$GPGGA,205544.000,3703.2087,N,00433.8564,W,1,06,1.3,427.3,M,49.0,M,,0000*46
21:55:41.097150$GPGSA,A,3,26,18,31,16,02,25,,,,,,,2.2,1.3,1.8*34
21:55:41.214051$GPRMC,205544.000,A,3703.2087,N,00433.8564,W,18.18,288.66,101222,,,A*4F
21:55:41.381018$GPGGA,205545.000,3703.2104,N,00433.8627,W,1,06,1.3,427.2,M,49.0,M,,0000*48
21:55:42.096857$GPGSA,A,3,26,18,31,16,02,25,,,,,,,2.2,1.3,1.8*34
21:55:42.213727$GPGSV,3,1,09,26,71,331,47,18,66,088,46,31,46,196,46,16,37,311,46*77
21:55:42.374167$GPGSV,3,2,09,02,31,045,44,25,07,117,29,12,47,115,,28,43,133,*75
21:55:42.525426$GPGSV,3,3,09,24,01,232,*44
21:55:42.591679$GPRMC,205545.000,A,3703.2104,N,00433.8627,W,19.05,288.69,101222,,,A*42
21:55:42.758878$GPGGA,205546.000,3703.2121,N,00433.8692,W,1,06,1.3,427.1,M,49.0,M,,0000*41
21:55:43.097846$GPGSA,A,3,26,18,31,16,02,25,,,,,,,2.2,1.3,1.8*34
21:55:43.214553$GPRMC,205546.000,A,3703.2121,N,00433.8692,W,20.22,288.79,101222,,,A*46
21:55:43.382005$GPGGA,205547.000,3703.2140,N,00433.8762,W,1,06,1.3,427.0,M,49.0,M,,0000*48
21:55:44.097385$GPGSA,A,3,26,18,31,16,02,25,,,,,,,2.2,1.3,1.8*34
21:55:44.214054$GPRMC,205547.000,A,3703.2140,N,00433.8762,W,21.45,288.84,101222,,,A*4C
21:55:44.381542$GPGGA,205548.000,3703.2160,N,00433.8836,W,1,06,1.3,427.0,M,49.0,M,,0000*4B
21:55:45.097123$GPGSA,A,3,26,18,31,16,02,25,,,,,,,2.2,1.3,1.8*34
21:55:45.213962$GPRMC,205548.000,A,3703.2160,N,00433.8836,W,22.55,288.47,101222,,,A*42
21:55:45.381253$GPGGA,205549.000,3703.2181,N,00433.8913,W,1,06,1.3,426.9,M,49.0,M,,0000*4B
21:55:46.096391$GPGSA,A,3,26,18,31,16,02,25,,,,,,,2.2,1.3,1.8*34
21:55:46.213215$GPRMC,205549.000,A,3703.2181,N,00433.8913,W,23.58,288.38,101222,,,A*4E
21:55:46.380600$GPGGA,205550.000,3703.2202,N,00433.8994,W,1,06,1.3,426.7,M,49.0,M,,0000*4A
21:55:47.096174$GPGSA,A,3,26,18,31,16,02,25,,,,,,,2.2,1.3,1.8*34
21:55:47.212980$GPGSV,3,1,09,26,71,331,47,18,66,088,46,31,46,196,46,16,37,311,47*76
21:55:47.373441$GPGSV,3,2,09,02,31,045,44,25,07,117,28,12,47,115,,28,43,133,*74
21:55:47.524684$GPGSV,3,3,09,24,01,232,*44
21:55:47.590898$GPRMC,205550.000,A,3703.2202,N,00433.8994,W,24.53,288.35,101222,,,A*40
21:55:47.758469$GPGGA,205551.000,3703.2224,N,00433.9077,W,1,06,1.3,426.6,M,49.0,M,,0000*4B
21:55:48.096896$GPGSA,A,3,26,18,31,16,02,25,,,,,,,2.2,1.3,1.8*34
21:55:48.213580$GPRMC,205551.000,A,3703.2224,N,00433.9077,W,25.51,288.39,101222,,,A*4F
21:55:48.380896$GPGGA,205552.000,3703.2247,N,00433.9164,W,1,06,1.3,426.6,M,49.0,M,,0000*4E
21:55:49.097282$GPGSA,A,3,26,18,31,16,02,25,,,,,,,2.2,1.3,1.8*34
21:55:49.214210$GPRMC,205552.000,A,3703.2247,N,00433.9164,W,26.41,288.54,101222,,,A*43
21:55:49.381462$GPGGA,205553.000,3703.2271,N,00433.9253,W,1,06,1.3,426.6,M,49.0,M,,0000*4D
21:55:50.097052$GPGSA,A,3,26,18,31,16,02,25,,,,,,,2.2,1.3,1.8*34
21:55:50.213867$GPRMC,205553.000,A,3703.2271,N,00433.9253,W,27.03,288.68,101222,,,A*48
21:55:50.381148$GPGGA,205554.000,3703.2296,N,00433.9343,W,1,06,1.3,426.6,M,49.0,M,,0000*43
21:55:51.097158$GPGSA,A,3,26,18,31,16,02,25,,,,,,,2.2,1.3,1.8*34
21:55:51.214135$GPRMC,205554.000,A,3703.2296,N,00433.9343,W,26.75,288.41,101222,,,A*4D
21:55:51.381312$GPGGA,205555.000,3703.2320,N,00433.9432,W,1,06,1.3,426.6,M,49.0,M,,0000*4F
21:55:52.097554$GPGSA,A,3,26,18,31,16,02,25,,,,,,,2.2,1.3,1.8*34
21:55:52.214458$GPGSV,3,1,09,26,71,331,47,18,66,088,46,31,46,196,46,16,37,311,47*76
21:55:52.374749$GPGSV,3,2,09,02,31,045,44,25,07,117,33,12,47,115,,28,43,133,*7E
21:55:52.525963$GPGSV,3,3,09,24,01,232,*44
21:55:52.592358$GPRMC,205555.000,A,3703.2320,N,00433.9432,W,26.70,288.80,101222,,,A*49
21:55:52.759804$GPGGA,205556.000,3703.2344,N,00433.9521,W,1,06,1.3,426.5,M,49.0,M,,0000*4E
21:55:53.097045$GPGSA,A,3,26,18,31,16,02,25,,,,,,,2.2,1.3,1.8*34
21:55:53.213946$GPRMC,205556.000,A,3703.2344,N,00433.9521,W,26.99,288.78,101222,,,A*4B
21:55:53.381265$GPGGA,205557.000,3703.2369,N,00433.9611,W,1,06,1.3,426.5,M,49.0,M,,0000*40
21:55:54.095937$GPGSA,A,3,26,18,31,16,02,25,,,,,,,2.2,1.3,1.8*34
21:55:54.212836$GPRMC,205557.000,A,3703.2369,N,00433.9611,W,27.37,289.36,101222,,,A*4B
21:55:54.380100$GPGGA,205558.000,3703.2395,N,00433.9702,W,1,06,1.3,426.4,M,49.0,M,,0000*4E
21:55:55.096737$GPGSA,A,3,26,18,31,16,02,25,,,,,,,2.2,1.3,1.8*34
21:55:55.213581$GPRMC,205558.000,A,3703.2395,N,00433.9702,W,27.75,288.93,101222,,,A*4C
21:55:55.380920$GPGGA,205559.000,3703.2421,N,00433.9794,W,1,06,1.3,426.3,M,49.0,M,,0000*4F
21:55:56.096713$GPGSA,A,3,26,18,31,16,02,25,,,,,,,2.2,1.3,1.8*34
21:55:56.213535$GPRMC,205559.000,A,3703.2421,N,00433.9794,W,28.01,289.53,101222,,,A*4B
21:55:56.380834$GPGGA,205600.000,3703.2450,N,00433.9886,W,1,06,1.3,426.2,M,49.0,M,,0000*4B
21:55:57.097315$GPGSA,A,3,26,18,31,16,02,25,,,,,,,2.2,1.3,1.8*34
21:55:57.214149$GPGSV,3,1,09,26,71,331,47,18,66,088,46,31,46,196,46,16,37,311,46*77
21:55:57.374555$GPGSV,3,2,09,02,31,045,44,25,07,117,35,12,47,115,,28,43,133,*78
21:55:57.525661$GPGSV,3,3,09,24,01,232,*44
21:55:57.591975$GPRMC,205600.000,A,3703.2450,N,00433.9886,W,28.24,293.12,101222,,,A*47
21:55:57.759429$GPGGA,205601.000,3703.2486,N,00433.9975,W,1,06,1.3,426.1,M,49.0,M,,0000*4F
21:55:58.096120$GPGSA,A,3,26,18,31,16,02,25,,,,,,,2.2,1.3,1.8*34
21:55:58.212954$GPRMC,205601.000,A,3703.2486,N,00433.9975,W,28.43,298.69,101222,,,A*46
21:55:58.380115$GPGGA,205602.000,3703.2531,N,00434.0057,W,1,06,1.3,426.2,M,49.0,M,,0000*45
21:55:59.095956$GPGSA,A,3,26,18,31,16,02,25,,,,,,,2.2,1.3,1.8*34
21:55:59.212766$GPRMC,205602.000,A,3703.2531,N,00434.0057,W,28.67,308.11,101222,,,A*4E
21:55:59.380039$GPGGA,205603.000,3703.2590,N,00434.0127,W,1,06,1.3,426.2,M,49.0,M,,0000*49
21:56:00.096631$GPGSA,A,3,26,18,31,16,02,25,,,,,,,2.2,1.3,1.8*34
21:56:00.213488$GPRMC,205603.000,A,3703.2590,N,00434.0127,W,29.06,318.63,101222,,,A*40
21:56:00.380741$GPGGA,205604.000,3703.2656,N,00434.0190,W,1,06,1.3,426.2,M,49.0,M,,0000*4B
21:56:01.097242$GPGSA,A,3,26,18,31,16,02,25,,,,,,,2.2,1.3,1.8*34
21:56:01.214112$GPRMC,205604.000,A,3703.2656,N,00434.0190,W,29.56,323.16,101222,,,A*4D
21:56:01.381355$GPGGA,205605.000,3703.2725,N,00434.0251,W,1,06,1.3,426.2,M,49.0,M,,0000*41
21:56:02.096000$GPGSA,A,3,26,18,31,16,02,25,,,,,,,2.2,1.3,1.8*34
21:56:02.212723$GPGSV,3,1,09,26,71,331,47,18,66,088,46,31,46,196,47,16,37,311,46*76
21:56:02.373304$GPGSV,3,2,09,02,31,045,44,25,07,117,28,12,47,115,,28,43,133,*74
21:56:02.524563$GPGSV,3,3,09,24,01,232,*44
21:56:02.590684$GPRMC,205605.000,A,3703.2725,N,00434.0251,W,30.11,323.50,101222,,,A*4E
21:56:02.758205$GPGGA,205606.000,3703.2794,N,00434.0313,W,1,06,1.3,426.0,M,49.0,M,,0000*4D
21:56:03.096062$GPGSA,A,3,26,18,31,16,02,25,,,,,,,2.2,1.3,1.8*34
21:56:03.212989$GPRMC,205606.000,A,3703.2794,N,00434.0313,W,30.55,323.52,101222,,,A*42
21:56:03.380136$GPGGA,205607.000,3703.2865,N,00434.0376,W,1,06,1.3,425.8,M,49.0,M,,0000*45
21:56:04.096668$GPGSA,A,3,26,18,31,16,02,25,,,,,,,2.2,1.3,1.8*34
21:56:04.213499$GPRMC,205607.000,A,3703.2865,N,00434.0376,W,30.81,323.47,101222,,,A*4C
21:56:04.380791$GPGGA,205608.000,3703.2935,N,00434.0440,W,1,06,1.3,425.6,M,49.0,M,,0000*42
21:56:05.096663$GPGSA,A,3,26,18,31,16,02,25,,,,,,,2.2,1.3,1.8*34
21:56:05.213419$GPRMC,205608.000,A,3703.2935,N,00434.0440,W,30.73,323.48,101222,,,A*47
21:56:05.380732$GPGGA,205609.000,3703.3004,N,00434.0503,W,1,06,1.3,425.5,M,49.0,M,,0000*4C
21:56:06.096074$GPGSA,A,3,26,18,31,16,02,25,,,,,,,2.2,1.3,1.8*34
21:56:06.213002$GPRMC,205609.000,A,3703.3004,N,00434.0503,W,30.30,323.19,101222,,,A*49
21:56:06.380272$GPGGA,205607.000,3703.3071,N,00434.0566,W,1,06,1.3,425.3,M,49.0,M,,0000*45
21:56:07.098428$GPGSA,A,3,26,18,31,16,02,25,,,,,,,2.2,1.3,1.8*34
21:56:07.215040$GPGSV,3,1,09,26,71,331,47,18,66,088,46,31,46,196,47,16,37,311,46*76
21:56:07.375530$GPGSV,3,2,09,02,31,045,46,25,07,117,30,12,47,115,,28,43,133,*7F
21:56:07.526762$GPGSV,3,3,09,24,01,232,*44
21:56:07.593346$GPRMC,205607.000,A,3703.3071,N,00434.0566,W,29.69,322.53,101222,,,A*4D
21:56:07.760353$GPGGA,205608.000,3703.3136,N,00434.0629,W,1,06,1.3,425.1,M,49.0,M,,0000*42
21:56:08.097676$GPGSA,A,3,26,18,31,16,02,25,,,,,,,2.2,1.3,1.8*34
21:56:08.214461$GPRMC,205608.000,A,3703.3136,N,00434.0629,W,29.11,320.89,101222,,,A*42
21:56:08.381828$GPGGA,205609.000,3703.3196,N,00434.0695,W,1,06,1.3,425.0,M,49.0,M,,0000*4F
21:56:09.097184$GPGSA,A,3,26,18,31,16,02,25,,,,,,,2.2,1.3,1.8*34
21:56:09.214084$GPRMC,205609.000,A,3703.3196,N,00434.0695,W,28.52,317.18,101222,,,A*44
21:56:09.381332$GPGGA,205610.000,3703.3251,N,00434.0765,W,1,06,1.3,424.9,M,49.0,M,,0000*49
21:56:10.096461$GPGSA,A,3,26,18,31,16,02,25,,,,,,,2.2,1.3,1.8*34
21:56:10.213289$GPRMC,205610.000,A,3703.3251,N,00434.0765,W,27.88,311.56,101222,,,A*4E
21:56:10.380707$GPGGA,205611.000,3703.3298,N,00434.0842,W,1,06,1.3,424.8,M,49.0,M,,0000*46
21:56:11.096888$GPGSA,A,3,26,18,31,16,02,25,,,,,,,2.2,1.3,1.8*34
21:56:11.213670$GPRMC,205611.000,A,3703.3298,N,00434.0842,W,27.53,304.52,101222,,,A*46
21:56:11.380747$GPGGA,205612.000,3703.3336,N,00434.0925,W,1,06,1.3,424.7,M,49.0,M,,0000*4F
21:56:12.097623$GPGSA,A,3,26,18,31,16,02,25,,,,,,,2.2,1.3,1.8*34
21:56:12.214502$GPGSV,3,1,09,26,71,331,47,18,66,088,46,31,46,196,47,16,37,311,46*76
21:56:12.374702$GPGSV,3,2,09,02,31,045,46,25,07,117,34,12,47,115,,28,43,133,*7B
21:56:12.526083$GPGSV,3,3,09,24,01,232,*44
21:56:12.592526$GPRMC,205612.000,A,3703.3336,N,00434.0925,W,27.60,296.62,101222,,,A*49
21:56:12.759850$GPGGA,205613.000,3703.3365,N,00434.1015,W,1,06,1.3,424.6,M,49.0,M,,0000*42
21:56:13.098088$GPGSA,A,3,26,18,31,16,02,25,,,,,,,2.2,1.3,1.8*34
21:56:13.214630$GPRMC,205613.000,A,3703.3365,N,00434.1015,W,27.78,289.39,101222,,,A*4C
21:56:13.382158$GPGGA,205614.000,3703.3387,N,00434.1108,W,1,06,1.3,424.6,M,49.0,M,,0000*44
21:56:14.096499$GPGSA,A,3,26,18,31,16,02,25,,,,,,,2.2,1.3,1.8*34
21:56:14.213296$GPRMC,205614.000,A,3703.3387,N,00434.1108,W,27.85,285.30,101222,,,A*4D
21:56:14.380637$GPGGA,205615.000,3703.3406,N,00434.1203,W,1,06,1.3,424.5,M,49.0,M,,0000*40
21:56:15.096412$GPGSA,A,3,26,18,31,16,02,25,,,,,,,2.2,1.3,1.8*34
21:56:15.213225$GPRMC,205615.000,A,3703.3406,N,00434.1203,W,27.71,284.55,101222,,,A*43
21:56:15.380595$GPGGA,205616.000,3703.3424,N,00434.1297,W,1,06,1.3,424.4,M,49.0,M,,0000*4F
21:56:16.097205$GPGSA,A,3,26,18,31,16,02,25,,,,,,,2.2,1.3,1.8*34
21:56:16.214189$GPRMC,205616.000,A,3703.3424,N,00434.1297,W,27.68,284.70,101222,,,A*42
21:56:16.381332$GPGGA,205617.000,3703.3443,N,00434.1391,W,1,06,1.3,424.4,M,49.0,M,,0000*48
21:56:17.097193$GPGSA,A,3,26,18,31,16,02,25,,,,,,,2.2,1.3,1.8*34
21:56:17.214004$GPGSV,3,1,09,26,71,331,47,18,66,088,46,31,46,196,47,16,37,311,46*76
21:56:17.374240$GPGSV,3,2,09,02,31,045,44,25,07,117,34,12,47,115,,28,43,133,*79
21:56:17.525432$GPGSV,3,3,09,24,01,232,*44
21:56:17.591845$GPRMC,205617.000,A,3703.3443,N,00434.1391,W,27.65,284.31,101222,,,A*4D
21:56:17.759327$GPGGA,205618.000,3703.3460,N,00434.1485,W,1,06,1.3,424.3,M,49.0,M,,0000*43
21:56:18.096415$GPGSA,A,3,26,18,31,16,02,25,,,,,,,2.2,1.3,1.8*34
21:56:18.213272$GPRMC,205618.000,A,3703.3460,N,00434.1485,W,27.65,283.10,101222,,,A*45
21:56:18.380682$GPGGA,205619.000,3703.3475,N,00434.1580,W,1,06,1.3,424.3,M,49.0,M,,0000*42
21:56:19.097023$GPGSA,A,3,26,18,31,16,02,25,,,,,,,2.2,1.3,1.8*34
21:56:19.213868$GPRMC,205619.000,A,3703.3475,N,00434.1580,W,27.83,280.11,101222,,,A*4E
21:56:19.381226$GPGGA,205620.000,3703.3486,N,00434.1677,W,1,06,1.3,424.2,M,49.0,M,,0000*4E
21:56:20.097274$GPGSA,A,3,26,18,31,16,02,25,,,,,,,2.2,1.3,1.8*34
21:56:20.214091$GPRMC,205620.000,A,3703.3486,N,00434.1677,W,28.07,276.99,101222,,,A*49
21:56:20.381348$GPGGA,205621.000,3703.3493,N,00434.1775,W,1,06,1.3,424.2,M,49.0,M,,0000*48
21:56:21.097130$GPGSA,A,3,26,18,31,16,02,25,,,,,,,2.2,1.3,1.8*34
21:56:21.214069$GPRMC,205621.000,A,3703.3493,N,00434.1775,W,28.38,274.89,101222,,,A*40
21:56:21.381294$GPGGA,205622.000,3703.3498,N,00434.1875,W,1,06,1.3,424.0,M,49.0,M,,0000*4D
21:56:22.096543$GPGSA,A,3,26,18,31,16,02,25,,,,,,,2.2,1.3,1.8*34
21:56:22.213290$GPGSV,3,1,09,26,71,331,48,18,66,088,46,31,46,196,47,16,37,311,46*79
21:56:22.373535$GPGSV,3,2,09,02,31,045,44,25,07,117,35,12,47,115,,28,43,133,*78
21:56:22.524740$GPGSV,3,3,09,24,01,232,*44
21:56:22.591215$GPRMC,205622.000,A,3703.3498,N,00434.1875,W,28.64,273.91,101222,,,A*40
21:56:22.758499$GPGGA,205623.000,3703.3503,N,00434.1975,W,1,06,1.3,423.9,M,49.0,M,,0000*40
21:56:23.096347$GPGSA,A,3,26,18,31,16,02,25,,,,,,,2.2,1.3,1.8*34
21:56:23.213253$GPRMC,205623.000,A,3703.3503,N,00434.1975,W,28.71,273.38,101222,,,A*44
21:56:23.380544$GPGGA,205624.000,3703.3506,N,00434.2074,W,1,06,1.3,423.8,M,49.0,M,,0000*48
21:56:24.097174$GPGSA,A,3,26,18,31,16,02,25,,,,,,,2.2,1.3,1.8*34
21:56:24.214161$GPRMC,205624.000,A,3703.3506,N,00434.2074,W,28.22,272.62,101222,,,A*45
21:56:24.381283$GPGGA,205625.000,3703.3509,N,00434.2172,W,1,06,1.3,423.7,M,49.0,M,,0000*4E
21:56:25.097733$GPGSA,A,3,26,18,31,16,02,25,,,,,,,2.2,1.3,1.8*34
21:56:25.214558$GPRMC,205625.000,A,3703.3509,N,00434.2172,W,27.71,272.01,101222,,,A*40
21:56:25.381974$GPGGA,205626.000,3703.3510,N,00434.2268,W,1,06,1.3,423.6,M,49.0,M,,0000*4C
21:56:26.096390$GPGSA,A,3,26,18,31,16,02,25,,,,,,,2.2,1.3,1.8*34
21:56:26.213273$GPRMC,205626.000,A,3703.3510,N,00434.2268,W,27.36,271.56,101222,,,A*41
21:56:26.380570$GPGGA,205627.000,3703.3512,N,00434.2362,W,1,06,1.3,423.6,M,49.0,M,,0000*44
21:56:27.096587$GPGSA,A,3,26,18,31,16,02,25,,,,,,,2.2,1.3,1.8*34
21:56:27.213411$GPGSV,3,1,09,26,71,331,48,18,66,088,46,31,46,196,47,16,37,311,46*79
21:56:27.373716$GPGSV,3,2,09,02,31,045,44,25,07,117,35,12,47,115,,28,43,133,*78
21:56:27.525024$GPGSV,3,3,09,24,01,232,*44
21:56:27.591336$GPRMC,205627.000,A,3703.3512,N,00434.2362,W,27.11,271.29,101222,,,A*44
21:56:27.758747$GPGGA,205628.000,3703.3513,N,00434.2457,W,1,06,1.3,423.5,M,49.0,M,,0000*48
21:56:28.097153$GPGSA,A,3,26,18,31,16,02,25,,,,,,,2.2,1.3,1.8*34
21:56:28.214037$GPRMC,205628.000,A,3703.3513,N,00434.2457,W,26.96,271.56,101222,,,A*4D
21:56:28.381378$GPGGA,205629.000,3703.3516,N,00434.2550,W,1,06,1.3,423.4,M,49.0,M,,0000*4B
21:56:29.097089$GPGSA,A,3,26,18,31,16,02,25,,,,,,,2.2,1.3,1.8*34
21:56:29.214017$GPRMC,205629.000,A,3703.3516,N,00434.2550,W,26.82,272.84,101222,,,A*46
21:56:29.381242$GPGGA,205630.000,3703.3522,N,00434.2643,W,1,06,1.3,423.3,M,49.0,M,,0000*42
21:56:30.096689$GPGSA,A,3,26,18,31,16,02,25,,,,,,,2.2,1.3,1.8*34
21:56:30.213425$GPRMC,205630.000,A,3703.3522,N,00434.2643,W,26.68,276.42,101222,,,A*42
21:56:30.380752$GPGGA,205631.000,3703.3534,N,00434.2734,W,1,06,1.3,423.1,M,49.0,M,,0000*47
21:56:31.096732$GPGSA,A,3,26,18,31,16,02,25,,,,,,,2.2,1.3,1.8*34
21:56:31.214000$GPRMC,205631.000,A,3703.3534,N,00434.2734,W,26.54,283.09,101222,,,A*4F
21:56:31.381165$GPGGA,205632.000,3703.3557,N,00434.2821,W,1,06,1.3,423.1,M,49.0,M,,0000*4A
21:56:32.097079$GPGSA,A,3,26,18,31,16,02,25,,,,,,,2.2,1.3,1.8*34
21:56:32.214017$GPGSV,3,1,09,26,71,331,48,18,66,088,46,31,46,196,47,16,37,311,46*79
21:56:32.374133$GPGSV,3,2,09,02,31,045,44,25,07,117,35,12,47,115,,28,43,133,*78
21:56:32.525573$GPGSV,3,3,09,24,01,232,*44
21:56:32.592079$GPRMC,205632.000,A,3703.3557,N,00434.2821,W,26.36,292.32,101222,,,A*4E
21:56:32.759334$GPGGA,205633.000,3703.3592,N,00434.2902,W,1,06,1.3,423.0,M,49.0,M,,0000*43
21:56:33.097019$GPGSA,A,3,26,18,31,16,02,25,,,,,,,2.2,1.3,1.8*34
21:56:33.213951$GPRMC,205633.000,A,3703.3592,N,00434.2902,W,26.53,301.57,101222,,,A*4D
21:56:33.381137$GPGGA,205634.000,3703.3635,N,00434.2978,W,1,06,1.3,423.0,M,49.0,M,,0000*47
21:56:34.096469$GPGSA,A,3,26,18,31,16,02,25,,,,,,,2.2,1.3,1.8*34
21:56:34.213060$GPRMC,205634.000,A,3703.3635,N,00434.2978,W,26.98,307.01,101222,,,A*4B
21:56:34.380474$GPGGA,205635.000,3703.3683,N,00434.3053,W,1,06,1.3,423.0,M,49.0,M,,0000*4A
21:56:35.096332$GPGSA,A,3,26,18,31,16,02,25,,,,,,,2.2,1.3,1.8*34
21:56:35.213151$GPRMC,205635.000,A,3703.3683,N,00434.3053,W,27.49,308.42,101222,,,A*43
21:56:35.380557$GPGGA,205636.000,3703.3732,N,00434.3128,W,1,06,1.3,422.9,M,49.0,M,,0000*47
21:56:36.097088$GPGSA,A,3,26,18,31,16,02,25,,,,,,,2.2,1.3,1.8*34
21:56:36.213985$GPRMC,205636.000,A,3703.3732,N,00434.3128,W,27.98,308.27,101222,,,A*49
21:56:36.381240$GPGGA,205637.000,3703.3781,N,00434.3205,W,1,06,1.3,422.7,M,49.0,M,,0000*4C
21:56:37.097409$GPGSA,A,3,26,18,31,16,02,25,,,,,,,2.2,1.3,1.8*34
21:56:37.214470$GPGSV,3,1,09,26,71,331,47,18,66,088,46,31,46,196,47,16,37,311,46*76
21:56:37.374879$GPGSV,3,2,09,02,31,045,45,25,07,117,35,12,47,115,,28,43,133,*79
21:56:37.526154$GPGSV,3,3,09,24,01,232,*44
21:56:37.592550$GPRMC,205637.000,A,3703.3781,N,00434.3205,W,28.50,308.07,101222,,,A*45
21:56:37.759854$GPGGA,205638.000,3703.3832,N,00434.3283,W,1,06,1.3,422.6,M,49.0,M,,0000*4B
21:56:38.096429$GPGSA,A,3,26,18,31,16,02,25,,,,,,,2.2,1.3,1.8*34
21:56:38.213182$GPRMC,205638.000,A,3703.3832,N,00434.3283,W,29.02,307.96,101222,,,A*42
21:56:38.380498$GPGGA,205639.000,3703.3883,N,00434.3363,W,1,06,1.3,422.5,M,49.0,M,,0000*4C
21:56:39.096290$GPGSA,A,3,26,18,31,16,02,25,,,,,,,2.2,1.3,1.8*34
21:56:39.213134$GPRMC,205639.000,A,3703.3883,N,00434.3363,W,29.44,308.18,101222,,,A*4D
21:56:39.380502$GPGGA,205640.000,3703.3935,N,00434.3444,W,1,06,1.3,422.3,M,49.0,M,,0000*4A
21:56:40.097088$GPGSA,A,3,26,18,31,16,02,25,,,,,,,2.2,1.3,1.8*34
21:56:40.213925$GPRMC,205640.000,A,3703.3935,N,00434.3444,W,29.86,308.46,101222,,,A*48
21:56:40.381216$GPGGA,205641.000,3703.3987,N,00434.3526,W,1,06,1.3,422.2,M,49.0,M,,0000*46
21:56:41.097180$GPGSA,A,3,26,18,31,16,02,25,,,,,,,2.2,1.3,1.8*34
21:56:41.214167$GPRMC,205641.000,A,3703.3987,N,00434.3526,W,30.24,308.46,101222,,,A*45
21:56:41.381365$GPGGA,205642.000,3703.4041,N,00434.3609,W,1,06,1.3,422.1,M,49.0,M,,0000*4C
21:56:42.096535$GPGSA,A,3,26,18,31,16,02,25,,,,,,,2.2,1.3,1.8*34
21:56:42.213350$GPGSV,3,1,09,26,71,331,47,18,66,088,46,31,46,196,46,16,37,311,45*74
21:56:42.373640$GPGSV,3,2,09,02,31,045,45,25,07,117,36,12,47,115,,28,43,133,*7A
21:56:42.525010$GPGSV,3,3,09,24,01,232,*44
21:56:42.591491$GPRMC,205642.000,A,3703.4041,N,00434.3609,W,30.55,308.39,101222,,,A*42
21:56:42.758624$GPGGA,205643.000,3703.4095,N,00434.3692,W,1,06,1.3,421.9,M,49.0,M,,0000*4D
21:56:43.097341$GPGSA,A,3,26,18,31,16,02,25,,,,,,,2.2,1.3,1.8*34
21:56:43.214172$GPRMC,205643.000,A,3703.4095,N,00434.3692,W,30.88,308.47,101222,,,A*41
21:56:43.381551$GPGGA,205644.000,3703.4149,N,00434.3777,W,1,06,1.3,421.7,M,49.0,M,,0000*4E
21:56:44.097438$GPGSA,A,3,26,18,31,16,02,25,,,,,,,2.2,1.3,1.8*34
21:56:44.214168$GPRMC,205644.000,A,3703.4149,N,00434.3777,W,31.18,308.47,101222,,,A*44
21:56:44.381479$GPGGA,205645.000,3703.4204,N,00434.3863,W,1,06,1.3,421.5,M,49.0,M,,0000*4D
21:56:45.097536$GPGSA,A,3,26,18,31,16,02,25,,,,,,,2.2,1.3,1.8*34
21:56:45.214547$GPRMC,205645.000,A,3703.4204,N,00434.3863,W,31.46,307.77,101222,,,A*42
21:56:45.381670$GPGGA,205646.000,3703.4257,N,00434.3950,W,1,06,1.3,421.4,M,49.0,M,,0000*48
21:56:46.096955$GPGSA,A,3,26,18,31,16,02,25,,,,,,,2.2,1.3,1.8*34
21:56:46.213786$GPRMC,205646.000,A,3703.4257,N,00434.3950,W,31.60,306.50,101222,,,A*46
21:56:46.381093$GPGGA,205647.000,3703.4309,N,00434.4040,W,1,06,1.3,421.3,M,49.0,M,,0000*4B
21:56:47.096923$GPGSA,A,3,26,18,31,16,02,25,,,,,,,2.2,1.3,1.8*34
21:56:47.213726$GPGSV,3,1,09,26,71,331,47,18,66,088,46,31,46,196,47,16,37,311,45*75
21:56:47.374104$GPGSV,3,2,09,02,31,045,46,25,07,117,36,12,47,115,,28,43,133,*79
21:56:47.525288$GPGSV,3,3,09,24,01,232,*44
21:56:47.591808$GPRMC,205647.000,A,3703.4309,N,00434.4040,W,31.55,304.57,101222,,,A*41
21:56:47.759026$GPGGA,205648.000,3703.4357,N,00434.4132,W,1,06,1.3,421.1,M,49.0,M,,0000*49
21:56:48.097025$GPGSA,A,3,26,18,31,16,02,25,,,,,,,2.2,1.3,1.8*34
21:56:48.213866$GPRMC,205648.000,A,3703.4357,N,00434.4132,W,31.47,302.63,101222,,,A*43
21:56:48.381147$GPGGA,205649.000,3703.4404,N,00434.4224,W,1,06,1.3,421.0,M,49.0,M,,0000*4C
21:56:49.097850$GPGSA,A,3,26,18,31,16,02,25,,,,,,,2.2,1.3,1.8*34
21:56:49.214617$GPRMC,205649.000,A,3703.4404,N,00434.4224,W,31.17,301.46,101222,,,A*46
21:56:49.381772$GPGGA,205650.000,3703.4448,N,00434.4317,W,1,06,1.3,421.0,M,49.0,M,,0000*4D
21:56:50.096499$GPGSA,A,3,26,18,31,16,02,25,,,,,,,2.2,1.3,1.8*34
21:56:50.213321$GPRMC,205650.000,A,3703.4448,N,00434.4317,W,30.62,300.67,101222,,,A*46
21:56:50.380577$GPGGA,205651.000,3703.4491,N,00434.4407,W,1,06,1.3,420.9,M,49.0,M,,0000*46
21:56:51.095664$GPGSA,A,3,26,18,31,16,02,25,,,,,,,2.2,1.3,1.8*34
21:56:51.212317$GPRMC,205651.000,A,3703.4491,N,00434.4407,W,29.88,300.36,101222,,,A*4D
21:56:51.379743$GPGGA,205652.000,3703.4533,N,00434.4496,W,1,06,1.3,420.8,M,49.0,M,,0000*45
21:56:52.097009$GPGSA,A,3,26,18,31,16,02,25,,,,,,,2.2,1.3,1.8*34
21:56:52.213868$GPGSV,3,1,09,26,71,331,47,18,66,088,46,31,46,196,47,16,37,311,45*75
21:56:52.374211$GPGSV,3,2,09,02,31,045,45,25,07,117,36,12,47,115,,28,43,133,*7A
21:56:52.525538$GPGSV,3,3,09,24,01,232,*44
21:56:52.591934$GPRMC,205652.000,A,3703.4533,N,00434.4496,W,29.18,300.25,101222,,,A*44
21:56:52.759203$GPGGA,205653.000,3703.4572,N,00434.4584,W,1,06,1.3,420.8,M,49.0,M,,0000*43
21:56:53.097152$GPGSA,A,3,26,18,31,16,02,25,,,,,,,2.2,1.3,1.8*34
21:56:53.214054$GPRMC,205653.000,A,3703.4572,N,00434.4584,W,28.49,297.77,101222,,,A*4F
21:56:53.381132$GPGGA,205654.000,3703.4604,N,00434.4672,W,1,06,1.3,420.8,M,49.0,M,,0000*4C
21:56:54.095672$GPGSA,A,3,26,18,31,16,02,25,,,,,,,2.2,1.3,1.8*34
21:56:54.212397$GPRMC,205654.000,A,3703.4604,N,00434.4672,W,27.63,291.93,101222,,,A*4B
21:56:54.379761$GPGGA,205655.000,3703.4625,N,00434.4763,W,1,06,1.3,420.9,M,49.0,M,,0000*4E
21:56:55.097397$GPGSA,A,3,26,18,31,16,02,25,,,,,,,2.2,1.3,1.8*34
21:56:55.213995$GPRMC,205655.000,A,3703.4625,N,00434.4763,W,26.72,281.35,101222,,,A*44
21:56:55.381202$GPGGA,205656.000,3703.4628,N,00434.4853,W,1,06,1.3,421.0,M,49.0,M,,0000*44
21:56:56.097213$GPGSA,A,3,26,18,31,16,02,25,,,,,,,2.2,1.3,1.8*34
21:56:56.213970$GPRMC,205656.000,A,3703.4628,N,00434.4853,W,25.72,265.78,101222,,,A*46
21:56:56.381216$GPGGA,205657.000,3703.4613,N,00434.4940,W,1,06,1.3,421.1,M,49.0,M,,0000*4F
21:56:57.096952$GPGSA,A,3,26,18,31,16,02,25,,,,,,,2.2,1.3,1.8*34
21:56:57.214030$GPGSV,3,1,09,26,71,331,47,18,66,088,46,31,46,196,47,16,37,311,46*76
21:56:57.374427$GPGSV,3,2,09,02,31,045,44,25,07,117,36,12,47,115,,28,43,133,*7B
21:56:57.525655$GPGSV,3,3,09,24,01,232,*44
21:56:57.592174$GPRMC,205657.000,A,3703.4613,N,00434.4940,W,25.06,254.00,101222,,,A*42
21:56:57.759357$GPGGA,205658.000,3703.4590,N,00434.5022,W,1,06,1.3,421.2,M,49.0,M,,0000*47
21:56:58.096465$GPGSA,A,3,26,18,31,16,02,25,,,,,,,2.2,1.3,1.8*34
21:56:58.213319$GPRMC,205658.000,A,3703.4590,N,00434.5022,W,24.61,250.34,101222,,,A*4A
21:56:58.380504$GPGGA,205659.000,3703.4565,N,00434.5102,W,1,06,1.3,421.3,M,49.0,M,,0000*4E
21:56:59.096395$GPGSA,A,3,26,18,31,16,02,25,,,,,,,2.2,1.3,1.8*34
21:56:59.213238$GPRMC,205659.000,A,3703.4565,N,00434.5102,W,24.33,249.70,101222,,,A*4D
21:56:59.380563$GPGGA,205700.000,3703.4540,N,00434.5181,W,1,06,1.3,421.4,M,49.0,M,,0000*48
21:57:00.096996$GPGSA,A,3,26,18,31,16,02,25,,,,,,,2.2,1.3,1.8*34
21:57:00.213866$GPRMC,205700.000,A,3703.4540,N,00434.5181,W,24.14,249.90,101222,,,A*47
21:57:00.381142$GPGGA,205701.000,3703.4516,N,00434.5260,W,1,06,1.3,421.5,M,49.0,M,,0000*47
21:57:01.097444$GPGSA,A,3,26,18,31,16,02,25,,,,,,,2.2,1.3,1.8*34
21:57:01.214221$GPRMC,205701.000,A,3703.4516,N,00434.5260,W,24.06,250.22,101222,,,A*4B
21:57:01.381481$GPGGA,205702.000,3703.4492,N,00434.5339,W,1,06,1.3,421.5,M,49.0,M,,0000*44
21:57:02.096700$GPGSA,A,3,26,18,31,16,02,25,,,,,,,2.2,1.3,1.8*34
21:57:02.213523$GPGSV,3,1,09,26,71,331,47,18,66,088,46,31,46,196,46,16,37,311,46*77
21:57:02.374141$GPGSV,3,2,09,02,31,045,44,25,07,117,37,12,47,115,,28,43,133,*7A
21:57:02.525364$GPGSV,3,3,09,24,01,232,*44
21:57:02.591820$GPRMC,205702.000,A,3703.4492,N,00434.5339,W,24.10,250.47,101222,,,A*4C
21:57:02.759058$GPGGA,205703.000,3703.4468,N,00434.5418,W,1,06,1.3,421.6,M,49.0,M,,0000*47
21:57:03.097107$GPGSA,A,3,26,18,31,16,02,25,,,,,,,2.2,1.3,1.8*34
21:57:03.213880$GPRMC,205703.000,A,3703.4468,N,00434.5418,W,24.19,250.33,101222,,,A*46
21:57:03.381014$GPGGA,205704.000,3703.4445,N,00434.5497,W,1,06,1.3,421.6,M,49.0,M,,0000*48
21:57:04.096976$GPGSA,A,3,26,18,31,16,02,25,,,,,,,2.2,1.3,1.8*34
21:57:04.213883$GPRMC,205704.000,A,3703.4445,N,00434.5497,W,24.24,250.64,101222,,,A*45
21:57:04.380950$GPGGA,205705.000,3703.4423,N,00434.5577,W,1,06,1.3,421.7,M,49.0,M,,0000*47
21:57:05.097146$GPGSA,A,3,26,18,31,16,02,25,,,,,,,2.2,1.3,1.8*34
21:57:05.213980$GPRMC,205705.000,A,3703.4423,N,00434.5577,W,24.14,252.31,101222,,,A*4A
21:57:05.381093$GPGGA,205706.000,3703.4404,N,00434.5657,W,1,06,1.3,421.7,M,49.0,M,,0000*40
21:57:06.096422$GPGSA,A,3,26,18,31,16,02,25,,,,,,,2.2,1.3,1.8*34
21:57:06.213313$GPRMC,205706.000,A,3703.4404,N,00434.5657,W,24.06,257.11,101222,,,A*49
21:57:06.380368$GPGGA,205707.000,3703.4393,N,00434.5740,W,1,06,1.3,421.7,M,49.0,M,,0000*4F
21:57:07.096783$GPGSA,A,3,26,18,31,16,02,25,,,,,,,2.2,1.3,1.8*34
21:57:07.213377$GPGSV,3,1,09,26,71,331,47,18,66,088,45,31,46,196,46,16,37,311,47*75
21:57:07.374048$GPGSV,3,2,09,02,31,045,44,25,07,117,38,12,47,115,,28,43,133,*75
21:57:07.525293$GPGSV,3,3,09,24,01,232,*44
21:57:07.591709$GPRMC,205707.000,A,3703.4393,N,00434.5740,W,24.20,263.11,101222,,,A*45
21:57:07.758939$GPGGA,205708.000,3703.4387,N,00434.5824,W,1,06,1.3,421.8,M,49.0,M,,0000*47
21:57:08.096955$GPGSA,A,3,26,18,31,16,02,25,,,,,,,2.2,1.3,1.8*34
21:57:08.213833$GPRMC,205708.000,A,3703.4387,N,00434.5824,W,24.47,267.87,101222,,,A*48
21:57:08.380919$GPGGA,205709.000,3703.4387,N,00434.5910,W,1,06,1.3,421.8,M,49.0,M,,0000*40
21:57:09.096921$GPGSA,A,3,26,18,31,16,02,25,,,,,,,2.2,1.3,1.8*34
21:57:09.214002$GPRMC,205709.000,A,3703.4387,N,00434.5910,W,24.83,271.24,101222,,,A*49
21:57:09.381060$GPGGA,205710.000,3703.4390,N,00434.5997,W,1,06,1.3,421.8,M,49.0,M,,0000*41
21:57:10.096423$GPGSA,A,3,26,18,31,16,02,25,,,,,,,2.2,1.3,1.8*34
21:57:10.213217$GPRMC,205710.000,A,3703.4390,N,00434.5997,W,25.31,272.73,101222,,,A*41
21:57:10.380319$GPGGA,205711.000,3703.4393,N,00434.6086,W,1,06,1.3,421.8,M,49.0,M,,0000*49
21:57:11.096078$GPGSA,A,3,26,18,31,16,02,25,,,,,,,2.2,1.3,1.8*34
21:57:11.213144$GPRMC,205711.000,A,3703.4393,N,00434.6086,W,25.75,272.54,101222,,,A*4C
21:57:11.380235$GPGGA,205712.000,3703.4396,N,00434.6176,W,1,06,1.3,421.8,M,49.0,M,,0000*41
21:57:12.097227$GPGSA,A,3,26,18,31,16,02,25,,,,,,,2.2,1.3,1.8*34
21:57:12.213785$GPGSV,3,1,09,26,71,331,47,18,66,088,46,31,46,196,47,16,37,311,46*76
21:57:12.374409$GPGSV,3,2,09,02,31,045,44,25,07,117,37,12,47,115,,28,43,133,*7A
21:57:12.525646$GPGSV,3,3,09,24,01,232,*44
21:57:12.591825$GPRMC,205712.000,A,3703.4396,N,00434.6176,W,26.17,272.35,101222,,,A*44
21:57:12.759306$GPGGA,205713.000,3703.4400,N,00434.6268,W,1,06,1.3,421.8,M,49.0,M,,0000*44
21:57:13.098356$GPGSA,A,3,26,18,31,16,02,25,,,,,,,2.2,1.3,1.8*34
21:57:13.215302$GPRMC,205713.000,A,3703.4400,N,00434.6268,W,26.59,272.50,101222,,,A*48
21:57:13.382409$GPGGA,205714.000,3703.4403,N,00434.6362,W,1,06,1.3,421.7,M,49.0,M,,0000*44
21:57:14.096141$GPGSA,A,3,26,18,31,16,02,25,,,,,,,2.2,1.3,1.8*34
21:57:14.213267$GPRMC,205714.000,A,3703.4403,N,00434.6362,W,26.97,272.27,101222,,,A*45
21:57:14.380298$GPGGA,205715.000,3703.4406,N,00434.6456,W,1,06,1.3,421.7,M,49.0,M,,0000*40
21:57:15.096258$GPGSA,A,3,26,18,31,16,02,25,,,,,,,2.2,1.3,1.8*34
21:57:15.213098$GPRMC,205715.000,A,3703.4406,N,00434.6456,W,27.29,272.08,101222,,,A*48
21:57:15.380232$GPGGA,205716.000,3703.4409,N,00434.6551,W,1,06,1.3,421.7,M,49.0,M,,0000*4A
21:57:16.096907$GPGSA,A,3,26,18,31,16,02,25,,,,,,,2.2,1.3,1.8*34
21:57:16.213716$GPRMC,205716.000,A,3703.4409,N,00434.6551,W,27.33,272.17,101222,,,A*47
21:57:16.380804$GPGGA,205717.000,3703.4412,N,00434.6645,W,1,06,1.3,421.7,M,49.0,M,,0000*47
21:57:17.097028$GPGSA,A,3,26,18,31,16,02,25,,,,,,,2.2,1.3,1.8*34
21:57:17.213671$GPGSV,3,1,09,26,71,331,48,18,66,088,46,31,46,196,47,16,37,311,46*79
21:57:17.374379$GPGSV,3,2,09,02,31,045,44,25,07,117,34,12,47,115,,28,43,133,*79
21:57:17.525537$GPGSV,3,3,09,24,01,232,*44
21:57:17.592039$GPRMC,205717.000,A,3703.4412,N,00434.6645,W,26.62,272.53,101222,,,A*4F
21:57:17.759216$GPGGA,205718.000,3703.4415,N,00434.6736,W,1,06,1.3,421.7,M,49.0,M,,0000*4A
21:57:18.096373$GPGSA,A,3,26,18,31,16,02,25,,,,,,,2.2,1.3,1.8*34
21:57:18.213169$GPRMC,205718.000,A,3703.4415,N,00434.6736,W,25.90,272.29,101222,,,A*41
21:57:18.380197$GPGGA,205719.000,3703.4418,N,00434.6825,W,1,06,1.3,421.7,M,49.0,M,,0000*4B
21:57:19.096722$GPGSA,A,3,26,18,31,16,02,25,,,,,,,2.2,1.3,1.8*34
21:57:19.213607$GPRMC,205719.000,A,3703.4418,N,00434.6825,W,25.24,271.68,101222,,,A*49
21:57:19.381015$GPGGA,205720.000,3703.4420,N,00434.6912,W,1,06,1.3,421.7,M,49.0,M,,0000*4F
21:57:20.097000$GPGSA,A,3,26,18,31,16,02,25,,,,,,,2.2,1.3,1.8*34
21:57:20.213722$GPRMC,205720.000,A,3703.4420,N,00434.6912,W,24.56,271.79,101222,,,A*49
21:57:20.381122$GPGGA,205721.000,3703.4423,N,00434.6996,W,1,06,1.3,421.7,M,49.0,M,,0000*41
21:57:21.096734$GPGSA,A,3,26,18,31,16,02,25,,,,,,,2.2,1.3,1.8*34
21:57:21.213709$GPRMC,205721.000,A,3703.4423,N,00434.6996,W,23.92,272.88,101222,,,A*45
21:57:21.381097$GPGGA,205722.000,3703.4427,N,00434.7077,W,1,06,1.3,421.7,M,49.0,M,,0000*41
21:57:22.096362$GPGSA,A,3,26,18,31,16,02,25,,,,,,,2.2,1.3,1.8*34
21:57:22.212951$GPGSV,3,1,09,26,71,331,48,18,66,088,46,31,46,196,47,16,37,311,46*79
21:57:22.373546$GPGSV,3,2,09,02,31,045,44,25,07,117,34,12,47,115,,28,43,133,*79
21:57:22.524838$GPGSV,3,3,09,24,01,232,*44
21:57:22.591311$GPRMC,205722.000,A,3703.4427,N,00434.7077,W,23.43,274.21,101222,,,A*4C
21:57:22.758470$GPGGA,205723.000,3703.4434,N,00434.7157,W,1,06,1.3,421.6,M,49.0,M,,0000*40
21:57:23.096182$GPGSA,A,3,26,18,31,16,02,25,,,,,,,2.2,1.3,1.8*34
21:57:23.212888$GPRMC,205723.000,A,3703.4434,N,00434.7157,W,22.96,277.91,101222,,,A*4D
21:57:23.380150$GPGGA,205724.000,3703.4448,N,00434.7235,W,1,06,1.3,421.4,M,49.0,M,,0000*49
21:57:24.096795$GPGSA,A,3,26,18,31,16,02,25,,,,,,,2.2,1.3,1.8*34
21:57:24.213703$GPRMC,205724.000,A,3703.4448,N,00434.7235,W,22.70,285.22,101222,,,A*4B
21:57:24.381147$GPGGA,205725.000,3703.4471,N,00434.7307,W,1,06,1.3,421.4,M,49.0,M,,0000*42
21:57:25.097381$GPGSA,A,3,26,18,31,16,02,25,,,,,,,2.2,1.3,1.8*34
21:57:25.214238$GPRMC,205725.000,A,3703.4471,N,00434.7307,W,22.39,295.89,101222,,,A*4D
21:57:25.381817$GPGGA,205726.000,3703.4505,N,00434.7371,W,1,06,1.3,421.4,M,49.0,M,,0000*42
21:57:26.096061$GPGSA,A,3,26,18,31,16,02,25,,,,,,,2.2,1.3,1.8*34
21:57:26.212943$GPRMC,205726.000,A,3703.4505,N,00434.7371,W,22.08,308.05,101222,,,A*4E
21:57:26.380150$GPGGA,205727.000,3703.4547,N,00434.7426,W,1,06,1.3,421.5,M,49.0,M,,0000*41
21:57:27.096474$GPGSA,A,3,26,18,31,16,02,25,,,,,,,2.2,1.3,1.8*34
21:57:27.213201$GPGSV,3,1,09,26,71,331,47,18,66,088,46,31,46,196,47,16,37,311,46*76
21:57:27.373715$GPGSV,3,2,09,02,31,045,44,25,07,117,38,12,47,115,,28,43,133,*75
21:57:27.524939$GPGSV,3,3,09,24,01,232,*44
21:57:27.591329$GPRMC,205727.000,A,3703.4547,N,00434.7426,W,21.79,316.03,101222,,,A*40
21:57:27.758503$GPGGA,205728.000,3703.4594,N,00434.7475,W,1,06,1.3,421.5,M,49.0,M,,0000*46
21:57:28.097155$GPGSA,A,3,26,18,31,16,02,25,,,,,,,2.2,1.3,1.8*34
21:57:28.213770$GPRMC,205728.000,A,3703.4594,N,00434.7475,W,21.21,320.37,101222,,,A*48
21:57:28.381091$GPGGA,205729.000,3703.4640,N,00434.7520,W,1,06,1.3,421.5,M,49.0,M,,0000*4C
21:57:29.096747$GPGSA,A,3,26,18,31,16,02,25,,,,,,,2.2,1.3,1.8*34
21:57:29.213603$GPRMC,205729.000,A,3703.4640,N,00434.7520,W,20.58,321.67,101222,,,A*49
21:57:29.380861$GPGGA,205730.000,3703.4685,N,00434.7563,W,1,06,1.3,421.5,M,49.0,M,,0000*4A
21:57:30.097687$GPGSA,A,3,26,18,31,16,02,25,,,,,,,2.2,1.3,1.8*34
21:57:30.214334$GPRMC,205730.000,A,3703.4685,N,00434.7563,W,19.94,320.40,101222,,,A*41
21:57:30.381769$GPGGA,205731.000,3703.4727,N,00434.7607,W,1,06,1.3,421.7,M,49.0,M,,0000*41
21:57:31.096605$GPGSA,A,3,26,18,31,16,02,25,,,,,,,2.2,1.3,1.8*34
21:57:31.213622$GPRMC,205731.000,A,3703.4727,N,00434.7607,W,19.39,318.07,101222,,,A*47
21:57:31.380931$GPGGA,205732.000,3703.4766,N,00434.7653,W,1,06,1.3,421.6,M,49.0,M,,0000*47
21:57:32.096344$GPGSA,A,3,26,18,31,16,02,25,,,,,,,2.2,1.3,1.8*34
21:57:32.213300$GPGSV,3,1,09,26,71,331,47,18,66,088,46,31,46,196,47,16,37,311,46*76
21:57:32.373856$GPGSV,3,2,09,02,31,045,45,25,07,117,32,12,47,115,,28,43,133,*7E
21:57:32.525112$GPGSV,3,3,09,24,01,232,*44
21:57:32.591477$GPRMC,205732.000,A,3703.4766,N,00434.7653,W,18.74,313.28,101222,,,A*4E
21:57:32.758754$GPGGA,205733.000,3703.4799,N,00434.7703,W,1,06,1.3,421.6,M,49.0,M,,0000*42
21:57:33.096343$GPGSA,A,3,26,18,31,16,02,25,,,,,,,2.2,1.3,1.8*34
21:57:33.213167$GPRMC,205733.000,A,3703.4799,N,00434.7703,W,18.48,304.71,101222,,,A*4E
21:57:33.380529$GPGGA,205734.000,3703.4823,N,00434.7759,W,1,06,1.3,421.5,M,49.0,M,,0000*47
21:57:34.095856$GPGSA,A,3,26,18,31,16,02,25,,,,,,,2.2,1.3,1.8*34
21:57:34.212733$GPRMC,205734.000,A,3703.4823,N,00434.7759,W,18.57,293.55,101222,,,A*4F
21:57:34.380150$GPGGA,205735.000,3703.4838,N,00434.7821,W,1,06,1.3,421.4,M,49.0,M,,0000*4D
21:57:35.094848$GPGSA,A,3,26,18,31,16,02,25,,,,,,,2.2,1.3,1.8*34
21:57:35.211799$GPRMC,205735.000,A,3703.4838,N,00434.7821,W,19.11,282.57,101222,,,A*45
21:57:35.379011$GPGGA,205736.000,3703.4842,N,00434.7889,W,1,06,1.3,421.2,M,49.0,M,,0000*47
21:57:36.094925$GPGSA,A,3,26,18,31,16,02,25,,,,,,,2.2,1.3,1.8*34
21:57:36.211862$GPRMC,205736.000,A,3703.4842,N,00434.7889,W,19.73,271.52,101222,,,A*44
21:57:36.379142$GPGGA,205737.000,3703.4836,N,00434.7959,W,1,06,1.3,421.2,M,49.0,M,,0000*49
21:57:37.095467$GPGSA,A,3,26,18,31,16,02,25,,,,,,,2.2,1.3,1.8*34
21:57:37.212154$GPGSV,3,1,09,26,71,331,48,18,66,088,46,31,46,196,47,16,37,311,39*71
21:57:37.372460$GPGSV,3,2,09,02,31,045,31,25,07,117,37,12,47,115,,28,43,133,*78
21:57:37.523963$GPGSV,3,3,09,24,01,232,*44
21:57:37.590223$GPRMC,205737.000,A,3703.4836,N,00434.7959,W,20.44,262.47,101222,,,A*42
21:57:37.757475$GPGGA,205738.000,3703.4823,N,00434.8032,W,1,06,1.3,421.3,M,49.0,M,,0000*48
21:57:38.095363$GPGSA,A,3,26,18,31,16,02,25,,,,,,,2.2,1.3,1.8*34
21:57:38.212155$GPRMC,205738.000,A,3703.4823,N,00434.8032,W,21.65,256.95,101222,,,A*48
21:57:38.379386$GPGGA,205739.000,3703.4806,N,00434.8106,W,1,06,1.3,421.4,M,49.0,M,,0000*4F
21:57:39.094532$GPGSA,A,3,26,18,31,16,02,25,,,,,,,2.2,1.3,1.8*34
21:57:39.211302$GPRMC,205739.000,A,3703.4806,N,00434.8106,W,22.18,254.74,101222,,,A*4C
21:57:39.378559$GPGGA,205740.000,3703.4788,N,00434.8183,W,1,06,1.3,421.3,M,49.0,M,,0000*42
21:57:40.095178$GPGSA,A,3,26,18,31,16,02,25,,,,,,,2.2,1.3,1.8*34
21:57:40.211983$GPRMC,205740.000,A,3703.4788,N,00434.8183,W,23.09,254.71,101222,,,A*42
21:57:40.379244$GPGGA,205741.000,3703.4770,N,00434.8263,W,1,06,1.3,421.2,M,49.0,M,,0000*48
21:57:41.095023$GPGSA,A,3,26,18,31,16,02,25,,,,,,,2.2,1.3,1.8*34
21:57:41.211954$GPRMC,205741.000,A,3703.4770,N,00434.8263,W,24.12,255.47,101222,,,A*40
21:57:41.379087$GPGGA,205742.000,3703.4752,N,00434.8346,W,1,06,1.3,421.2,M,49.0,M,,0000*4D
21:57:42.094516$GPGSA,A,3,26,18,31,16,02,25,,,,,,,2.2,1.3,1.8*34
21:57:42.211379$GPGSV,3,1,09,26,71,331,47,18,66,088,46,31,46,196,46,16,37,311,35*73
21:57:42.372052$GPGSV,3,2,09,02,31,045,33,25,07,117,26,12,47,115,,28,43,133,*7A
21:57:42.523213$GPGSV,3,3,09,24,01,232,*44
21:57:42.589706$GPRMC,205742.000,A,3703.4752,N,00434.8346,W,24.81,255.03,101222,,,A*4F
21:57:42.757001$GPGGA,205743.000,3703.4732,N,00434.8432,W,1,06,1.3,421.3,M,49.0,M,,0000*4F
21:57:43.095915$GPGSA,A,3,26,18,31,16,02,25,,,,,,,2.2,1.3,1.8*34
21:57:43.212846$GPRMC,205743.000,A,3703.4732,N,00434.8432,W,25.69,254.66,101222,,,A*49
21:57:43.380209$GPGGA,205744.000,3703.4712,N,00434.8520,W,1,06,1.3,421.6,M,49.0,M,,0000*4D
21:57:44.095403$GPGSA,A,3,26,18,31,16,02,25,,,,,,,2.2,1.3,1.8*34
21:57:44.212372$GPRMC,205744.000,A,3703.4712,N,00434.8520,W,26.33,254.71,101222,,,A*44
21:57:44.379559$GPGGA,205745.000,3703.4693,N,00434.8611,W,1,06,1.3,421.5,M,49.0,M,,0000*46
21:57:45.095463$GPGSA,A,3,26,18,31,16,02,25,,,,,,,2.2,1.3,1.8*34
21:57:45.212249$GPRMC,205745.000,A,3703.4693,N,00434.8611,W,27.29,255.44,101222,,,A*41
21:57:45.379544$GPGGA,205746.000,3703.4673,N,00434.8705,W,1,06,1.3,421.5,M,49.0,M,,0000*4F
21:57:46.094742$GPGSA,A,3,26,18,31,16,02,25,,,,,,,2.2,1.3,1.8*34
21:57:46.211815$GPRMC,205746.000,A,3703.4673,N,00434.8705,W,27.82,255.81,101222,,,A*40
21:57:46.378927$GPGGA,205747.000,3703.4653,N,00434.8800,W,1,06,1.3,421.6,M,49.0,M,,0000*45
21:57:47.094681$GPGSA,A,3,26,18,31,16,02,25,,,,,,,2.2,1.3,1.8*34
21:57:47.211526$GPGSV,3,1,09,26,71,331,47,18,66,088,46,31,46,196,46,16,37,311,35*73
21:57:47.372032$GPGSV,3,2,09,02,31,045,32,25,07,117,26,12,47,115,,28,43,133,*7B
21:57:47.523390$GPGSV,3,3,09,24,01,232,*44
21:57:47.589975$GPRMC,205747.000,A,3703.4653,N,00434.8800,W,28.19,255.44,101222,,,A*4D
21:57:47.757118$GPGGA,205748.000,3703.4632,N,00434.8897,W,1,06,1.3,421.8,M,49.0,M,,0000*4D
21:57:48.095431$GPGSA,A,3,26,18,31,16,02,25,,,,,,,2.2,1.3,1.8*34
21:57:48.212326$GPRMC,205748.000,A,3703.4632,N,00434.8897,W,28.91,255.80,101222,,,A*43
21:57:48.379593$GPGGA,205749.000,3703.4612,N,00434.8996,W,1,06,1.3,421.7,M,49.0,M,,0000*41
21:57:49.096521$GPGSA,A,3,26,18,31,16,02,25,,,,,,,2.2,1.3,1.8*34
21:57:49.213423$GPRMC,205749.000,A,3703.4612,N,00434.8996,W,29.22,255.13,101222,,,A*43
21:57:49.380751$GPGGA,205750.000,3703.4591,N,00434.9096,W,1,06,1.3,421.7,M,49.0,M,,0000*49
21:57:50.095316$GPGSA,A,3,26,18,31,16,02,25,,,,,,,2.2,1.3,1.8*34
21:57:50.212196$GPRMC,205750.000,A,3703.4591,N,00434.9096,W,29.77,254.89,101222,,,A*49
21:57:50.379569$GPGGA,205751.000,3703.4568,N,00434.9197,W,1,06,1.3,422.0,M,49.0,M,,0000*4A
21:57:51.095309$GPGSA,A,3,26,18,31,16,02,25,,,,,,,2.2,1.3,1.8*34
21:57:51.212203$GPRMC,205751.000,A,3703.4568,N,00434.9197,W,30.05,254.68,101222,,,A*4C
21:57:51.379512$GPGGA,205752.000,3703.4547,N,00434.9299,W,1,06,1.3,422.0,M,49.0,M,,0000*49
21:57:52.096096$GPGSA,A,3,26,18,31,16,02,25,,,,,,,2.2,1.3,1.8*34
21:57:52.212913$GPGSV,3,1,09,26,71,331,48,18,66,088,46,31,46,196,46,16,37,311,35*7C
21:57:52.373536$GPGSV,3,2,09,02,31,045,32,25,07,117,27,12,47,115,,28,43,133,*7A
21:57:52.524682$GPGSV,3,3,09,24,01,232,*44
21:57:52.591164$GPRMC,205752.000,A,3703.4547,N,00434.9299,W,30.24,255.58,101222,,,A*4E
21:57:52.758284$GPGGA,205753.000,3703.4525,N,00434.9401,W,1,06,1.3,422.2,M,49.0,M,,0000*49
21:57:53.096072$GPGSA,A,3,26,18,31,16,02,25,,,,,,,2.2,1.3,1.8*34
21:57:53.213003$GPRMC,205753.000,A,3703.4525,N,00434.9401,W,30.04,255.09,101222,,,A*4A
21:57:53.380254$GPGGA,205754.000,3703.4505,N,00434.9504,W,1,06,1.3,421.9,M,49.0,M,,0000*40
21:57:54.095099$GPGSA,A,3,26,18,31,16,02,25,,,,,,,2.2,1.3,1.8*34
21:57:54.212001$GPRMC,205754.000,A,3703.4505,N,00434.9504,W,30.36,255.82,101222,,,A*49
21:57:54.379241$GPGGA,205755.000,3703.4484,N,00434.9607,W,1,06,1.3,422.0,M,49.0,M,,0000*43
21:57:55.095593$GPGSA,A,3,26,18,31,16,02,25,,,,,,,2.2,1.3,1.8*34
21:57:55.212526$GPRMC,205755.000,A,3703.4484,N,00434.9607,W,30.25,255.31,101222,,,A*4A
21:57:55.379973$GPGGA,205756.000,3703.4462,N,00434.9710,W,1,06,1.3,422.4,M,49.0,M,,0000*4B
21:57:56.095925$GPGSA,A,3,26,18,31,16,02,25,,,,,,,2.2,1.3,1.8*34
21:57:56.212728$GPRMC,205756.000,A,3703.4462,N,00434.9710,W,30.35,255.31,101222,,,A*47
21:57:56.380113$GPGGA,205757.000,3703.4441,N,00434.9813,W,1,06,1.3,422.3,M,49.0,M,,0000*40
21:57:57.096087$GPGSA,A,3,26,18,31,16,02,25,,,,,,,2.2,1.3,1.8*34
21:57:57.213103$GPGSV,3,1,09,26,71,331,48,18,66,088,46,31,46,196,46,16,37,311,35*7C
21:57:57.373429$GPGSV,3,2,09,02,31,045,33,25,07,117,25,12,47,115,,28,43,133,*79
21:57:57.524672$GPGSV,3,3,09,24,01,232,*44
21:57:57.591078$GPRMC,205757.000,A,3703.4441,N,00434.9813,W,30.58,255.48,101222,,,A*4E
21:57:57.758408$GPGGA,205758.000,3703.4420,N,00434.9917,W,1,06,1.3,422.4,M,49.0,M,,0000*4A
21:57:58.095527$GPGSA,A,3,26,18,31,16,02,25,,,,,,,2.2,1.3,1.8*34
21:57:58.212508$GPRMC,205758.000,A,3703.4420,N,00434.9917,W,30.82,255.36,101222,,,A*4D
21:57:58.379699$GPGGA,205759.000,3703.4398,N,00435.0021,W,1,06,1.3,422.2,M,49.0,M,,0000*4D
21:57:59.095763$GPGSA,A,3,26,18,31,16,02,25,,,,,,,2.2,1.3,1.8*34
21:57:59.212641$GPRMC,205759.000,A,3703.4398,N,00435.0021,W,30.90,255.14,101222,,,A*4F
21:57:59.379963$GPGGA,205800.000,3703.4377,N,00435.0127,W,1,06,1.3,422.0,M,49.0,M,,0000*4A
21:58:00.096098$GPGSA,A,3,26,18,31,16,02,25,,,,,,,2.2,1.3,1.8*34
21:58:00.213000$GPRMC,205800.000,A,3703.4377,N,00435.0127,W,31.42,255.63,101222,,,A*44
21:58:00.380293$GPGGA,205801.000,3703.4355,N,00435.0234,W,1,06,1.3,422.0,M,49.0,M,,0000*4A
21:58:01.096698$GPGSA,A,3,26,18,31,16,02,25,,,,,,,2.2,1.3,1.8*34
21:58:01.213583$GPRMC,205801.000,A,3703.4355,N,00435.0234,W,31.35,255.46,101222,,,A*43
21:58:01.380927$GPGGA,205802.000,3703.4333,N,00435.0341,W,1,06,1.3,422.5,M,49.0,M,,0000*4F
21:58:02.094764$GPGSA,A,3,26,18,31,16,02,25,,,,,,,2.2,1.3,1.8*34
21:58:02.211557$GPGSV,3,1,10,26,72,333,47,18,66,085,46,31,44,196,46,16,38,312,36*7A
21:58:02.372099$GPGSV,3,2,10,02,30,045,34,25,06,118,34,12,48,113,,28,44,132,*76
21:58:02.523323$GPGSV,3,3,10,24,02,233,,09,00,281,*7C
21:58:02.614930$GPRMC,205802.000,A,3703.4333,N,00435.0341,W,31.65,255.58,101222,,,A*49
21:58:02.782320$GPGGA,205803.000,3703.4310,N,00435.0449,W,1,06,1.3,422.9,M,49.0,M,,0000*4C
21:58:03.093964$GPGSA,A,3,26,18,31,16,02,25,,,,,,,2.2,1.3,1.8*34
21:58:03.210632$GPRMC,205803.000,A,3703.4310,N,00435.0449,W,31.77,255.19,101222,,,A*40
21:58:03.378168$GPGGA,205804.000,3703.4288,N,00435.0556,W,1,06,1.3,423.1,M,49.0,M,,0000*4D
21:58:04.094585$GPGSA,A,3,26,18,31,16,02,25,,,,,,,2.2,1.3,1.8*34
21:58:04.211489$GPRMC,205804.000,A,3703.4288,N,00435.0556,W,31.79,254.86,101222,,,A*41
21:58:04.378771$GPGGA,205805.000,3703.4265,N,00435.0663,W,1,06,1.3,423.0,M,49.0,M,,0000*4B
21:58:05.094567$GPGSA,A,3,26,18,31,16,02,25,,,,,,,2.2,1.3,1.8*34
21:58:05.211342$GPRMC,205805.000,A,3703.4265,N,00435.0663,W,31.85,254.64,101222,,,A*49
21:58:05.378669$GPGGA,205806.000,3703.4242,N,00435.0772,W,1,06,1.3,423.0,M,49.0,M,,0000*4C
21:58:06.093975$GPGSA,A,3,26,18,31,16,02,25,,,,,,,2.2,1.3,1.8*34
21:58:06.210632$GPRMC,205806.000,A,3703.4242,N,00435.0772,W,32.32,255.46,101222,,,A*40
21:58:06.377965$GPGGA,205807.000,3703.4221,N,00435.0880,W,1,06,1.3,422.9,M,49.0,M,,0000*42
21:58:07.094331$GPGSA,A,3,26,18,31,16,02,25,,,,,,,2.2,1.3,1.8*34
21:58:07.211004$GPGSV,3,1,10,26,72,333,48,18,66,085,46,31,44,196,46,16,38,312,36*75
